{
  "metadata": {
    "generated": "2026-02-05",
    "description": "Major plagues and pandemics throughout history",
    "sources": ["CDC", "WHO", "Encyclopedia of Pestilence, Pandemics, and Plagues"]
  },
  "plagues": [
    {
      "name": "Plague of Athens",
      "start": -430,
      "end": -426,
      "pathogen": "Unknown (typhoid fever likely)",
      "deaths": "75,000-100,000",
      "mortality_rate": "25%",
      "origin": {"lat": 38.0, "lng": 24.0, "region": "Athens, Greece"},
      "spread_regions": [
        {"lat": 38.0, "lng": 24.0, "region": "Athens", "deaths": "75,000+"}
      ],
      "icon": "‚ò†Ô∏è",
      "color": "#4A0080",
      "description": "Struck Athens during Peloponnesian War. Killed Pericles and 1/3 of population.",
      "historical_impact": "Weakened Athens decisively. Contributed to loss of war against Sparta.",
      "sources": ["Thucydides, History of the Peloponnesian War"]
    },
    {
      "name": "Antonine Plague",
      "start": 165,
      "end": 180,
      "pathogen": "Smallpox or measles",
      "deaths": "5,000,000-10,000,000",
      "mortality_rate": "25-33%",
      "origin": {"lat": 36.0, "lng": 43.0, "region": "Near East (returning soldiers)"},
      "spread_regions": [
        {"lat": 42.0, "lng": 12.5, "region": "Roman Empire", "deaths": "5-10 million"}
      ],
      "icon": "ü¶†",
      "color": "#800000",
      "description": "Brought back by soldiers from Parthian campaign. Killed Marcus Aurelius.",
      "historical_impact": "Marked beginning of Roman decline. Depopulated frontier regions.",
      "sources": ["Galen's medical writings"]
    },
    {
      "name": "Plague of Cyprian",
      "start": 249,
      "end": 262,
      "pathogen": "Unknown (possibly viral hemorrhagic fever)",
      "deaths": "Unknown (massive)",
      "mortality_rate": "Unknown",
      "origin": {"lat": 31.0, "lng": 30.0, "region": "Ethiopia/Egypt"},
      "spread_regions": [
        {"lat": 42.0, "lng": 12.5, "region": "Roman Empire", "deaths": "5,000/day in Rome at peak"}
      ],
      "icon": "üíÄ",
      "color": "#4B0082",
      "description": "Named for bishop who documented it. 5,000 deaths per day in Rome at peak.",
      "historical_impact": "Further weakened Roman Empire. Contributed to Crisis of Third Century.",
      "sources": ["Cyprian of Carthage"]
    },
    {
      "name": "Plague of Justinian",
      "start": 541,
      "end": 549,
      "pathogen": "Yersinia pestis (bubonic plague)",
      "deaths": "25,000,000-50,000,000",
      "mortality_rate": "40-60%",
      "origin": {"lat": 30.0, "lng": 31.0, "region": "Egypt (grain ships)"},
      "spread_regions": [
        {"lat": 41.0, "lng": 29.0, "region": "Constantinople", "deaths": "40% of city"},
        {"lat": 42.0, "lng": 12.5, "region": "Mediterranean", "deaths": "25-50 million total"}
      ],
      "icon": "üêÄ",
      "color": "#2F4F4F",
      "description": "First recorded bubonic plague pandemic. Recurred for 200 years.",
      "historical_impact": "Ended Justinian's reconquest. Weakened Byzantine/Sassanid empires. Enabled Arab conquests.",
      "sources": ["Procopius, Secret History"]
    },
    {
      "name": "Black Death",
      "start": 1346,
      "end": 1353,
      "pathogen": "Yersinia pestis (bubonic/pneumonic plague)",
      "deaths": "75,000,000-200,000,000",
      "mortality_rate": "30-60%",
      "origin": {"lat": 42.0, "lng": 65.0, "region": "Central Asia"},
      "spread_regions": [
        {"lat": 45.0, "lng": 35.0, "region": "Crimea (Caffa)", "deaths": "Siege of Caffa 1346"},
        {"lat": 38.0, "lng": 15.0, "region": "Sicily", "deaths": "First European landing 1347"},
        {"lat": 48.0, "lng": 2.3, "region": "France", "deaths": "40-50% died"},
        {"lat": 51.5, "lng": -0.1, "region": "England", "deaths": "40-50% died"},
        {"lat": 50.0, "lng": 10.0, "region": "Germany", "deaths": "30-40% died"}
      ],
      "icon": "‚ö´",
      "color": "#000000",
      "description": "Deadliest pandemic in human history. Killed 1/3 to 1/2 of Europe.",
      "historical_impact": "Ended feudalism (labor shortage). Triggered religious upheaval. Renaissance followed.",
      "sources": ["Boccaccio, The Decameron", "Chronicle of Jean de Venette"]
    },
    {
      "name": "Columbian Exchange Diseases",
      "start": 1492,
      "end": 1600,
      "pathogen": "Smallpox, measles, typhus, influenza",
      "deaths": "45,000,000-90,000,000",
      "mortality_rate": "90% in some populations",
      "origin": {"lat": 40.0, "lng": -4.0, "region": "Europe (to Americas)"},
      "spread_regions": [
        {"lat": 19.0, "lng": -99.0, "region": "Mexico (Aztec)", "deaths": "90% population"},
        {"lat": -12.0, "lng": -77.0, "region": "Peru (Inca)", "deaths": "90% population"},
        {"lat": 18.5, "lng": -69.9, "region": "Caribbean", "deaths": "Near extinction"},
        {"lat": 40.0, "lng": -75.0, "region": "North America", "deaths": "90% indigenous"}
      ],
      "icon": "üö¢",
      "color": "#8B4513",
      "description": "European diseases devastated Americas. Populations had no immunity.",
      "historical_impact": "Enabled European conquest. Largest demographic catastrophe in history.",
      "sources": ["Crosby, The Columbian Exchange", "Mann, 1491"]
    },
    {
      "name": "Great Plague of London",
      "start": 1665,
      "end": 1666,
      "pathogen": "Yersinia pestis (bubonic plague)",
      "deaths": "100,000",
      "mortality_rate": "15-20%",
      "origin": {"lat": 51.5, "lng": -0.1, "region": "London, England"},
      "spread_regions": [
        {"lat": 51.5, "lng": -0.1, "region": "London", "deaths": "100,000"}
      ],
      "icon": "üîî",
      "color": "#36454F",
      "description": "Last major plague outbreak in England. 'Bring out your dead.'",
      "historical_impact": "Led to public health reforms. Great Fire (1666) killed remaining rats.",
      "sources": ["Defoe, A Journal of the Plague Year", "Pepys' Diary"]
    },
    {
      "name": "Cholera Pandemics",
      "start": 1817,
      "end": 1923,
      "pathogen": "Vibrio cholerae",
      "deaths": "1,000,000+ per pandemic",
      "mortality_rate": "50%+ untreated",
      "origin": {"lat": 22.5, "lng": 88.4, "region": "Bengal, India"},
      "spread_regions": [
        {"lat": 22.5, "lng": 88.4, "region": "India", "deaths": "Millions"},
        {"lat": 51.5, "lng": -0.1, "region": "London", "deaths": "Thousands per outbreak"},
        {"lat": 40.7, "lng": -74.0, "region": "New York", "deaths": "Thousands"}
      ],
      "icon": "üíß",
      "color": "#1E90FF",
      "description": "Seven pandemics over 100 years. Spread via contaminated water.",
      "historical_impact": "John Snow's epidemiology. Modern sanitation and public health born.",
      "sources": ["John Snow, On the Mode of Communication of Cholera"]
    },
    {
      "name": "Spanish Flu",
      "start": 1918,
      "end": 1920,
      "pathogen": "H1N1 influenza virus",
      "deaths": "50,000,000-100,000,000",
      "mortality_rate": "2-3% (10-20% infected)",
      "origin": {"lat": 39.0, "lng": -98.0, "region": "Kansas, USA (disputed)"},
      "spread_regions": [
        {"lat": 39.0, "lng": -98.0, "region": "USA", "deaths": "675,000"},
        {"lat": 48.0, "lng": 2.0, "region": "Europe", "deaths": "2,500,000"},
        {"lat": 20.0, "lng": 78.0, "region": "India", "deaths": "17,000,000"},
        {"lat": 35.0, "lng": 105.0, "region": "China", "deaths": "4-9 million"}
      ],
      "icon": "ü§ß",
      "color": "#FF4500",
      "description": "Deadliest pandemic in modern history. WWI spread it globally.",
      "historical_impact": "More deaths than WWI combat. Led to public health agencies. W-shaped mortality (killed young adults).",
      "sources": ["Barry, The Great Influenza", "Crosby, America's Forgotten Pandemic"]
    },
    {
      "name": "HIV/AIDS Pandemic",
      "start": 1981,
      "end": null,
      "pathogen": "Human Immunodeficiency Virus",
      "deaths": "40,000,000+",
      "mortality_rate": "~100% untreated, <1% with treatment",
      "origin": {"lat": -4.0, "lng": 15.0, "region": "Central Africa (crossed from chimps ~1920)"},
      "spread_regions": [
        {"lat": -4.0, "lng": 15.0, "region": "Sub-Saharan Africa", "deaths": "25 million+"},
        {"lat": 40.7, "lng": -74.0, "region": "USA", "deaths": "700,000+"},
        {"lat": 0.0, "lng": 0.0, "region": "Global", "deaths": "40 million+ total"}
      ],
      "icon": "üéóÔ∏è",
      "color": "#FF0000",
      "description": "Ongoing pandemic. 38 million currently living with HIV.",
      "historical_impact": "Transformed medicine and society. LGBTQ+ activism. Antiretroviral drugs now prevent death.",
      "sources": ["UNAIDS", "CDC"]
    },
    {
      "name": "COVID-19 Pandemic",
      "start": 2019,
      "end": 2023,
      "pathogen": "SARS-CoV-2 coronavirus",
      "deaths": "7,000,000+ (official), 15-20 million (estimated)",
      "mortality_rate": "1-2%",
      "origin": {"lat": 30.6, "lng": 114.3, "region": "Wuhan, China"},
      "spread_regions": [
        {"lat": 30.6, "lng": 114.3, "region": "China", "deaths": "Official: 120,000"},
        {"lat": 40.7, "lng": -74.0, "region": "USA", "deaths": "1,100,000+"},
        {"lat": 20.0, "lng": 78.0, "region": "India", "deaths": "530,000+ (likely millions)"},
        {"lat": -14.0, "lng": -51.0, "region": "Brazil", "deaths": "700,000+"}
      ],
      "icon": "üò∑",
      "color": "#00CED1",
      "description": "First pandemic of social media age. mRNA vaccines developed in record time.",
      "historical_impact": "Remote work revolution. Supply chain disruption. Political polarization. Fastest vaccine development ever.",
      "sources": ["WHO", "Johns Hopkins University"]
    }
  ]
}
