{
  "metadata": {
    "generated": "2026-02-05",
    "description": "Major world religions - origins, spread, and historical development",
    "sources": ["Encyclopedia of Religion", "Oxford Handbook of Religious History", "Pew Research Center"]
  },
  "religions": [
    {
      "name": "Hinduism",
      "origin": {"lat": 28.0, "lng": 77.0, "date": -2000, "region": "Indus Valley"},
      "icon": "üïâÔ∏è",
      "color": "#FF9933",
      "founder": "No single founder (evolved from Vedic religion)",
      "sacred_texts": ["Vedas", "Upanishads", "Bhagavad Gita", "Ramayana", "Mahabharata"],
      "core_beliefs": "Dharma, Karma, Samsara, Moksha. Many paths to divine.",
      "adherents_today": "1.2 billion (15%)",
      "spread": [
        {"year": -1500, "lat": 26.0, "lng": 80.0, "region": "Gangetic Plain", "event": "Vedic period expansion"},
        {"year": -500, "lat": 20.0, "lng": 78.0, "region": "South India", "event": "Spread throughout subcontinent"},
        {"year": 100, "lat": 13.0, "lng": 100.0, "region": "Southeast Asia", "event": "Trade brought Hindu culture"},
        {"year": 400, "lat": -7.0, "lng": 110.0, "region": "Java/Indonesia", "event": "Hindu kingdoms established"},
        {"year": 800, "lat": 13.4, "lng": 103.9, "region": "Cambodia", "event": "Khmer Empire (Angkor)"}
      ]
    },
    {
      "name": "Buddhism",
      "origin": {"lat": 27.5, "lng": 83.5, "date": -528, "region": "Lumbini, Nepal"},
      "icon": "‚ò∏Ô∏è",
      "color": "#FFD700",
      "founder": "Siddhartha Gautama (Buddha)",
      "sacred_texts": ["Tripitaka", "Sutras", "Dhammapada"],
      "core_beliefs": "Four Noble Truths, Eightfold Path, Nirvana, Non-attachment",
      "adherents_today": "500 million (7%)",
      "spread": [
        {"year": -250, "lat": 25.0, "lng": 80.0, "region": "India (Maurya)", "event": "Ashoka's conversion and missions"},
        {"year": -200, "lat": 37.0, "lng": 67.0, "region": "Central Asia", "event": "Greco-Buddhist kingdoms"},
        {"year": 100, "lat": 35.0, "lng": 105.0, "region": "China", "event": "Silk Road transmission"},
        {"year": 372, "lat": 37.5, "lng": 127.0, "region": "Korea", "event": "From China via monks"},
        {"year": 552, "lat": 35.0, "lng": 136.0, "region": "Japan", "event": "Official introduction from Korea"},
        {"year": 700, "lat": 30.0, "lng": 90.0, "region": "Tibet", "event": "Tantric Buddhism established"},
        {"year": 1200, "lat": 15.0, "lng": 100.0, "region": "Thailand/SE Asia", "event": "Theravada becomes dominant"}
      ]
    },
    {
      "name": "Judaism",
      "origin": {"lat": 31.8, "lng": 35.2, "date": -2000, "region": "Canaan (Israel/Palestine)"},
      "icon": "‚ú°Ô∏è",
      "color": "#0038B8",
      "founder": "Abraham (patriarch), Moses (lawgiver)",
      "sacred_texts": ["Torah", "Tanakh", "Talmud"],
      "core_beliefs": "Monotheism, Covenant with God, Torah law, Messianic hope",
      "adherents_today": "15 million (0.2%)",
      "spread": [
        {"year": -586, "lat": 33.0, "lng": 44.0, "region": "Babylon", "event": "Babylonian Exile diaspora"},
        {"year": -300, "lat": 31.2, "lng": 29.9, "region": "Alexandria", "event": "Major diaspora community"},
        {"year": 70, "lat": 42.0, "lng": 12.5, "region": "Roman Empire", "event": "Destruction of Temple, diaspora expands"},
        {"year": 1000, "lat": 50.0, "lng": 20.0, "region": "Eastern Europe", "event": "Ashkenazi communities grow"},
        {"year": 1492, "lat": 35.0, "lng": -5.0, "region": "North Africa/Ottoman", "event": "Sephardic expulsion from Spain"},
        {"year": 1948, "lat": 31.8, "lng": 35.2, "region": "Israel", "event": "State of Israel established"}
      ]
    },
    {
      "name": "Christianity",
      "origin": {"lat": 31.8, "lng": 35.2, "date": 30, "region": "Judea (Jerusalem)"},
      "icon": "‚úùÔ∏è",
      "color": "#8B0000",
      "founder": "Jesus Christ",
      "sacred_texts": ["Bible (Old & New Testament)"],
      "core_beliefs": "Trinity, Salvation through Christ, Resurrection, Love",
      "adherents_today": "2.4 billion (31%)",
      "spread": [
        {"year": 50, "lat": 37.0, "lng": 27.0, "region": "Asia Minor", "event": "Paul's missionary journeys"},
        {"year": 60, "lat": 41.9, "lng": 12.5, "region": "Rome", "event": "Early church established"},
        {"year": 301, "lat": 40.0, "lng": 45.0, "region": "Armenia", "event": "First Christian state"},
        {"year": 313, "lat": 41.9, "lng": 12.5, "region": "Roman Empire", "event": "Constantine's Edict of Milan"},
        {"year": 380, "lat": 41.0, "lng": 29.0, "region": "Roman Empire", "event": "Official state religion"},
        {"year": 600, "lat": 52.0, "lng": 0.0, "region": "Britain/Ireland", "event": "Celtic Christianity spreads"},
        {"year": 988, "lat": 50.5, "lng": 30.5, "region": "Kievan Rus", "event": "Vladimir converts Russia"},
        {"year": 1500, "lat": 20.0, "lng": -99.0, "region": "Americas", "event": "Spanish/Portuguese missions"},
        {"year": 1600, "lat": -5.0, "lng": 20.0, "region": "Africa", "event": "European colonial missions"},
        {"year": 1800, "lat": -20.0, "lng": 140.0, "region": "Pacific/Asia", "event": "Protestant missions worldwide"}
      ]
    },
    {
      "name": "Islam",
      "origin": {"lat": 21.4, "lng": 39.8, "date": 622, "region": "Mecca/Medina, Arabia"},
      "icon": "‚ò™Ô∏è",
      "color": "#006400",
      "founder": "Prophet Muhammad",
      "sacred_texts": ["Quran", "Hadith"],
      "core_beliefs": "Five Pillars, Tawhid (oneness of God), Submission to Allah",
      "adherents_today": "1.9 billion (24%)",
      "spread": [
        {"year": 632, "lat": 24.0, "lng": 45.0, "region": "Arabian Peninsula", "event": "Unified under Islam"},
        {"year": 640, "lat": 30.0, "lng": 31.0, "region": "Egypt", "event": "Arab conquest"},
        {"year": 650, "lat": 32.0, "lng": 52.0, "region": "Persia", "event": "Sassanid Empire falls"},
        {"year": 711, "lat": 37.0, "lng": -6.0, "region": "Spain (Al-Andalus)", "event": "Umayyad conquest"},
        {"year": 750, "lat": 42.0, "lng": 65.0, "region": "Central Asia", "event": "Abbasid expansion"},
        {"year": 1000, "lat": 27.0, "lng": 68.0, "region": "India", "event": "Sultanates established"},
        {"year": 1200, "lat": -4.0, "lng": 39.0, "region": "East Africa", "event": "Swahili coast trade"},
        {"year": 1300, "lat": 5.0, "lng": 100.0, "region": "Indonesia/Malaysia", "event": "Trade brought Islam"},
        {"year": 1453, "lat": 41.0, "lng": 29.0, "region": "Anatolia/Balkans", "event": "Ottoman expansion"}
      ]
    },
    {
      "name": "Sikhism",
      "origin": {"lat": 31.6, "lng": 74.9, "date": 1500, "region": "Punjab, India"},
      "icon": "ü™Ø",
      "color": "#FF6600",
      "founder": "Guru Nanak",
      "sacred_texts": ["Guru Granth Sahib"],
      "core_beliefs": "One God, equality, service, honest living, sharing",
      "adherents_today": "30 million (0.4%)",
      "spread": [
        {"year": 1600, "lat": 30.0, "lng": 76.0, "region": "Punjab expansion", "event": "Ten Gurus period"},
        {"year": 1800, "lat": 32.0, "lng": 74.0, "region": "Sikh Empire", "event": "Ranjit Singh's kingdom"},
        {"year": 1900, "lat": 51.5, "lng": -0.1, "region": "British Empire", "event": "Colonial diaspora begins"},
        {"year": 1970, "lat": 43.0, "lng": -79.0, "region": "North America", "event": "Immigration increases"}
      ]
    },
    {
      "name": "Zoroastrianism",
      "origin": {"lat": 36.0, "lng": 53.0, "date": -1500, "region": "Persia (Iran)"},
      "icon": "üî•",
      "color": "#FFD700",
      "founder": "Zoroaster (Zarathustra)",
      "sacred_texts": ["Avesta"],
      "core_beliefs": "Cosmic dualism (good vs evil), fire worship, ethical choice",
      "adherents_today": "200,000",
      "spread": [
        {"year": -550, "lat": 30.0, "lng": 52.0, "region": "Persian Empire", "event": "Achaemenid state religion"},
        {"year": -330, "lat": 33.0, "lng": 44.0, "region": "Persepolis to Babylon", "event": "Empire-wide practice"},
        {"year": 224, "lat": 32.0, "lng": 52.0, "region": "Sassanid Persia", "event": "State religion restored"},
        {"year": 700, "lat": 19.0, "lng": 73.0, "region": "India (Gujarat)", "event": "Parsi refugees flee Islamic conquest"}
      ]
    },
    {
      "name": "Confucianism",
      "origin": {"lat": 35.6, "lng": 117.0, "date": -500, "region": "Lu State, China"},
      "icon": "‚òØÔ∏è",
      "color": "#8B4513",
      "founder": "Confucius (Kong Fuzi)",
      "sacred_texts": ["Analects", "Five Classics"],
      "core_beliefs": "Filial piety, social harmony, virtue ethics, proper relationships",
      "adherents_today": "6 million (formal) / hundreds of millions (cultural)",
      "spread": [
        {"year": -200, "lat": 34.0, "lng": 113.0, "region": "Han China", "event": "State ideology established"},
        {"year": 400, "lat": 37.5, "lng": 127.0, "region": "Korea", "event": "Confucian academies"},
        {"year": 600, "lat": 35.0, "lng": 136.0, "region": "Japan", "event": "Adopted by elite"},
        {"year": 1000, "lat": 21.0, "lng": 106.0, "region": "Vietnam", "event": "Civil service exams"}
      ]
    },
    {
      "name": "Shinto",
      "origin": {"lat": 35.0, "lng": 136.0, "date": -500, "region": "Japan"},
      "icon": "‚õ©Ô∏è",
      "color": "#FF0000",
      "founder": "No founder (indigenous)",
      "sacred_texts": ["Kojiki", "Nihon Shoki"],
      "core_beliefs": "Kami (spirits/gods), purity, nature worship, ancestor veneration",
      "adherents_today": "4 million (formal) / 70%+ Japanese (cultural)",
      "spread": [
        {"year": 700, "lat": 35.0, "lng": 136.0, "region": "Japan unified", "event": "State Shinto formalized"},
        {"year": 1868, "lat": 35.7, "lng": 139.7, "region": "Japan", "event": "Meiji state Shinto"}
      ]
    }
  ]
}
